City_ID,City,Country,Lat,Lng,Max Temp,Humidity,Cloudiness,Wind Speed,Current Description
0,Khatanga,RU,71.9667,102.5,45.52,60,13,12.28,few clouds
1,Bowen,AU,-20.0167,148.2333,69.28,73,89,10.07,overcast clouds
2,Kakching,IN,24.4833,93.9833,69.98,89,54,2.55,broken clouds
3,Punta Arenas,CL,-53.15,-70.9167,48.31,37,0,14.97,clear sky
4,Vaini,TO,-21.2,-175.2,71.76,94,90,6.91,overcast clouds
5,Mataura,NZ,-46.1927,168.8643,46.47,94,100,4.88,overcast clouds
6,Sitka,US,57.0531,-135.33,55.29,88,90,10.36,mist
7,Carnarvon,AU,-24.8667,113.6333,62.67,67,0,17.27,clear sky
8,Tuatapere,NZ,-46.1333,167.6833,46.81,85,100,10.27,moderate rain
9,Cape Town,ZA,-33.9258,18.4232,62.89,76,89,1.99,overcast clouds
10,East London,ZA,-33.0153,27.9116,77.67,59,33,10.36,scattered clouds
11,Walvis Bay,NA,-22.9575,14.5053,68.83,47,3,22.5,clear sky
12,Sehithwa,BW,-20.4667,22.7167,81.37,17,0,9.78,clear sky
13,Yokadouma,CM,3.5167,15.05,77.83,78,73,4.14,broken clouds
14,Makakilo City,US,21.3469,-158.0858,74.68,82,90,6.91,overcast clouds
15,Xam Nua,LA,20.4197,104.0439,68.81,90,12,1.72,few clouds
16,Bluff,NZ,-46.6,168.3333,46.8,73,100,19.24,light rain
17,Rikitea,PF,-23.1203,-134.9692,73.36,71,10,10.56,clear sky
18,Yulara,AU,-25.2406,130.9889,58.84,14,0,9.22,clear sky
19,Nishihara,JP,26.1842,127.7558,82.06,89,75,9.22,broken clouds
20,Albany,US,42.6001,-73.9662,73.8,68,54,5.12,broken clouds
21,Chokurdakh,RU,70.6333,147.9167,35.28,66,100,11.72,overcast clouds
22,Ambon,ID,-3.6954,128.1814,77.14,94,40,3.44,moderate rain
23,Beringovskiy,RU,63.05,179.3167,37.36,98,100,17.83,moderate rain
24,Avarua,CK,-21.2078,-159.775,73.45,94,75,5.75,light rain
25,Castro,BR,-24.7911,-50.0119,65.48,79,100,9.44,moderate rain
26,Hamilton,US,39.1834,-84.5333,77.88,61,1,1.01,clear sky
27,Ushuaia,AR,-54.8,-68.3,44.26,57,40,8.05,scattered clouds
28,Bredasdorp,ZA,-34.5322,20.0403,60.28,76,100,0.96,overcast clouds
29,Nikolskoye,RU,59.7035,30.7861,64.29,97,38,5.39,scattered clouds
30,Kyshtovka,RU,56.555,76.6271,41.34,89,30,7.0,scattered clouds
31,Barroquinha,BR,-3.0189,-41.1361,91.18,35,2,13.22,clear sky
32,Nazare,BR,-13.035,-39.0144,86.05,51,84,7.02,broken clouds
33,Barrow,US,71.2906,-156.7887,35.62,93,90,10.36,fog
34,Port Alfred,ZA,-33.5906,26.891,80.31,50,2,9.24,clear sky
35,Sorland,NO,67.667,12.6934,49.28,70,15,10.11,few clouds
36,Torbay,CA,47.6666,-52.7314,69.58,71,26,13.0,scattered clouds
37,Agadez,NE,19.75,10.25,104.83,9,18,12.66,few clouds
38,Jamestown,US,42.097,-79.2353,73.18,58,1,7.0,clear sky
39,Tuy Hoa,VN,13.0833,109.3,80.42,75,100,14.63,overcast clouds
40,Nome,US,64.5011,-165.4064,42.87,82,90,5.75,light rain
41,Eggenfelden,DE,48.4054,12.7626,73.44,83,93,3.27,overcast clouds
42,Busselton,AU,-33.65,115.3333,45.09,86,5,7.85,clear sky
43,Puerto Ayora,EC,-0.7393,-90.3518,71.55,87,94,8.01,overcast clouds
44,Richards Bay,ZA,-28.783,32.0377,69.87,64,0,17.02,clear sky
45,San Cristobal,VE,7.7669,-72.225,75.38,71,100,7.02,overcast clouds
46,Tilichiki,RU,60.4667,166.1,35.58,74,75,20.11,broken clouds
47,Aklavik,CA,68.2191,-135.0107,44.92,75,100,5.59,overcast clouds
48,Olga,RU,43.7444,135.2892,57.56,93,36,4.34,scattered clouds
49,Hualmay,PE,-11.0964,-77.6139,65.97,75,94,10.18,overcast clouds
50,Ordynskoye,RU,54.3656,81.8994,51.98,93,100,11.81,light rain
51,Bengkulu,ID,-3.8004,102.2655,77.23,90,91,7.9,overcast clouds
52,Haines Junction,CA,60.7522,-137.5108,44.64,88,100,0.83,overcast clouds
53,Fonte Boa,BR,-2.4959,-66.2662,90.54,55,65,1.52,broken clouds
54,Novyy Urengoy,RU,66.0833,76.6333,45.75,85,100,7.54,light rain
55,Cabo San Lucas,MX,22.8909,-109.9124,85.51,75,1,4.61,clear sky
56,Burley,US,42.5357,-113.7928,62.56,72,1,4.61,clear sky
57,Vestmannaeyjar,IS,63.4427,-20.2734,54.59,82,20,13.8,few clouds
58,Victoria,HK,22.2855,114.1577,87.96,86,49,1.99,light rain
59,Lydenburg,ZA,-25.0978,30.4597,62.4,32,0,2.77,clear sky
60,Mahebourg,MU,-20.4081,57.7,71.26,77,7,18.1,clear sky
61,Roebourne,AU,-20.7833,117.1333,74.84,51,2,13.76,clear sky
62,Ottawa,CA,45.4112,-75.6981,70.02,60,98,1.01,overcast clouds
63,Labuhan,ID,-6.8844,112.2051,80.2,79,100,5.82,overcast clouds
64,Coihaique,CL,-45.5752,-72.0662,47.01,81,90,3.44,light rain
65,Cidreira,BR,-30.1811,-50.2056,67.5,61,21,7.23,few clouds
66,New Norfolk,AU,-42.7826,147.0587,45.91,75,61,1.99,broken clouds
67,Machico,PT,32.7,-16.7667,83.03,72,40,9.22,scattered clouds
68,Saint George,US,37.1041,-113.5841,90.43,31,1,1.99,clear sky
69,Cockburn Town,TC,21.4612,-71.1419,83.79,75,9,16.73,clear sky
70,Bethel,US,41.3712,-73.414,76.08,61,1,1.99,clear sky
71,Butaritari,KI,3.0707,172.7902,83.1,76,49,19.8,light rain
72,Ribeira Grande,PT,38.5167,-28.7,73.8,68,40,12.66,scattered clouds
73,Sirajganj,BD,24.45,89.7167,85.87,75,100,5.44,overcast clouds
74,Vila Franca Do Campo,PT,37.7167,-25.4333,72.01,71,75,17.13,broken clouds
75,Maningrida,AU,-12.0667,134.2667,74.55,86,51,6.67,broken clouds
76,Tarakan,ID,3.3,117.6333,80.94,78,91,7.36,overcast clouds
77,Kurmanayevka,RU,52.5093,52.0675,52.56,55,24,4.72,few clouds
78,Lagos,NG,6.5833,3.75,78.24,84,89,4.12,overcast clouds
79,Kahului,US,20.8947,-156.47,74.46,81,20,4.61,few clouds
80,Thompson,CA,55.7435,-97.8558,47.71,64,97,15.75,overcast clouds
81,Awbari,LY,26.5921,12.7805,100.06,12,0,7.38,clear sky
82,Hithadhoo,MV,-0.6,73.0833,83.39,69,79,7.0,broken clouds
83,Los Alamos,US,35.8881,-106.307,76.14,28,1,1.01,clear sky
84,Tuktoyaktuk,CA,69.4541,-133.0374,42.15,75,79,17.38,broken clouds
85,Coahuayana,MX,18.7333,-103.6833,85.48,69,100,1.54,overcast clouds
86,Port Elizabeth,ZA,-33.918,25.5701,64.09,78,66,9.57,broken clouds
87,Praia Da Vitoria,PT,38.7333,-27.0667,74.75,71,96,23.29,overcast clouds
88,Vila Velha,BR,-20.3297,-40.2925,89.55,45,0,12.66,clear sky
89,Saint-Pierre,RE,-21.3393,55.4781,69.48,87,75,24.16,light rain
90,Esperance,AU,-33.8667,121.9,52.79,74,99,10.71,overcast clouds
91,Comodoro Rivadavia,AR,-45.8667,-67.5,57.06,58,75,8.05,light rain
92,Hushitai,CN,41.9322,123.5114,57.11,72,0,4.07,light rain
93,Starodzhereliyevskaya,RU,45.476,38.2968,65.28,67,100,9.26,light rain
94,Sakaiminato,JP,35.55,133.2333,73.33,86,39,5.23,scattered clouds
95,Doha,QA,25.2867,51.5333,97.11,70,0,10.36,clear sky
96,Yellowknife,CA,62.456,-114.3525,43.75,71,100,17.63,overcast clouds
97,Isangel,VU,-19.55,169.2667,68.47,73,15,10.38,few clouds
98,Cravo Norte,CO,6.3017,-70.2041,78.85,82,98,5.44,overcast clouds
99,Alofi,NU,-19.0595,-169.9187,76.53,80,100,13.85,moderate rain
100,Ligatne,LV,57.2343,25.0406,66.25,77,67,0.29,broken clouds
101,Yar-Sale,RU,66.8333,70.8333,42.8,83,100,10.13,overcast clouds
102,Ouallam,NE,14.3188,2.0866,99.03,33,54,2.21,broken clouds
103,Coshocton,US,40.272,-81.8596,75.51,52,39,10.96,scattered clouds
104,Raudeberg,NO,61.9875,5.1352,58.19,93,99,1.01,overcast clouds
105,Hobart,AU,-42.8794,147.3294,46.26,78,75,4.0,broken clouds
106,Atuona,PF,-9.8,-139.0333,77.59,76,7,16.26,clear sky
107,Kapaa,US,22.0752,-159.319,75.52,70,20,16.11,light rain
108,Krizevci,HR,46.0219,16.5425,81.28,32,8,3.94,clear sky
109,Clyde River,CA,70.4692,-68.5914,32.79,76,90,17.72,overcast clouds
110,Abu Zabad,SD,12.35,29.25,83.52,60,53,8.7,broken clouds
111,North Platte,US,41.1239,-100.7654,78.69,47,1,10.36,clear sky
112,Qaanaaq,GL,77.484,-69.3632,22.82,68,10,7.67,clear sky
113,Hilo,US,19.7297,-155.09,76.28,84,1,3.44,clear sky
114,Opuwo,NA,-18.0607,13.84,90.1,10,0,15.03,clear sky
115,Sorrento,IT,40.626,14.3744,82.53,73,100,2.24,overcast clouds
116,Margate,GB,51.3813,1.3862,72.7,59,45,11.25,scattered clouds
117,Dikson,RU,73.5069,80.5464,41.43,87,100,13.42,overcast clouds
118,Malanje,AO,-9.5402,16.341,88.36,14,53,6.11,broken clouds
119,Souillac,MU,-20.5167,57.5167,71.37,78,19,17.31,few clouds
120,Necochea,AR,-38.5473,-58.7368,57.04,68,76,14.83,broken clouds
121,San Policarpo,PH,12.1791,125.5072,80.08,86,100,8.39,overcast clouds
122,Tommot,RU,58.9564,126.2925,43.68,89,0,2.75,clear sky
123,Saint-Joseph,RE,-21.3667,55.6167,68.38,80,24,15.86,light rain
124,Lagoa,PT,39.05,-27.9833,68.97,71,99,23.6,overcast clouds
125,Coolum Beach,AU,-26.5333,153.1,57.22,91,14,8.95,few clouds
126,Conde,BR,-7.2597,-34.9075,83.66,58,75,17.27,broken clouds
127,San Ramon,US,37.7799,-121.978,69.4,78,1,5.01,clear sky
128,Taltal,CL,-25.4,-70.4833,59.04,73,44,3.58,scattered clouds
129,Tromso,NO,69.6496,18.957,54.25,71,0,8.05,clear sky
130,Saskylakh,RU,71.9167,114.0833,50.36,68,78,8.43,broken clouds
131,Hermanus,ZA,-34.4187,19.2345,60.8,79,97,14.76,overcast clouds
132,Hasaki,JP,35.7333,140.8333,73.8,91,75,6.08,broken clouds
133,Norman Wells,CA,65.282,-126.8329,50.18,82,100,1.9,overcast clouds
134,Zyryanka,RU,65.75,150.85,32.52,68,63,3.76,broken clouds
135,Teguise,ES,29.0605,-13.564,73.62,83,0,16.11,clear sky
136,Kaitangata,NZ,-46.2817,169.8464,41.5,88,90,5.17,overcast clouds
137,Vyazma,RU,55.2104,34.2951,64.06,66,100,5.44,overcast clouds
138,Tonj,SS,7.2737,28.6822,75.97,84,94,2.95,overcast clouds
139,Mount Gambier,AU,-37.8333,140.7667,50.36,56,92,13.0,overcast clouds
140,Okhotsk,RU,59.3833,143.3,45.91,68,7,2.44,clear sky
141,Pundaguitan,PH,6.3711,126.1689,79.92,78,100,2.89,overcast clouds
142,Georgetown,MY,5.4112,100.3354,79.9,86,20,0.0,few clouds
143,Baturaja,ID,-4.1333,104.1667,76.89,79,95,1.16,overcast clouds
144,Nichinan,JP,31.6,131.3667,73.67,90,97,2.68,moderate rain
145,Ambilobe,MG,-13.2,49.05,74.61,59,20,8.37,few clouds
146,Anadyr,RU,64.75,177.4833,33.98,95,100,22.41,light rain
147,Upernavik,GL,72.7868,-56.1549,25.88,50,59,6.11,broken clouds
148,Batagay-Alyta,RU,67.8006,130.4114,42.96,53,41,2.37,scattered clouds
149,Bengbu,CN,32.9408,117.3608,72.72,95,0,6.31,light rain
150,Chuy,UY,-33.6971,-53.4616,62.38,75,42,4.12,scattered clouds
151,Emba,KZ,48.8264,58.1442,56.01,32,0,11.05,clear sky
152,Maceio,BR,-9.6658,-35.7353,87.24,62,40,12.66,scattered clouds
153,Cherskiy,RU,68.75,161.3,24.6,83,76,3.33,broken clouds
154,Oussouye,SN,12.485,-16.5469,81.72,74,97,10.71,overcast clouds
155,Tasiilaq,GL,65.6145,-37.6368,39.36,54,91,6.42,overcast clouds
156,Ayr,GB,55.4627,-4.6339,61.48,77,40,19.57,scattered clouds
157,Talnakh,RU,69.4865,88.3972,40.41,90,98,7.61,overcast clouds
158,Quatre Cocos,MU,-20.2078,57.7625,71.1,78,12,18.03,few clouds
159,Alugan,PH,12.2188,125.4808,79.57,87,100,7.99,overcast clouds
160,Sinnamary,GF,5.3833,-52.95,86.31,60,15,12.88,few clouds
161,Dashitou,CN,43.3067,128.5114,47.35,93,1,8.63,clear sky
162,Kilindoni,TZ,-7.9139,39.6668,76.5,77,55,18.77,broken clouds
163,Saint-Philippe,RE,-21.3585,55.7679,69.39,83,47,15.79,light rain
164,Pangnirtung,CA,66.1451,-65.7125,36.39,45,10,2.77,clear sky
165,Buritizeiro,BR,-17.3511,-44.9622,99.75,12,8,4.7,clear sky
166,Coos Bay,US,43.3665,-124.2179,61.86,88,1,0.0,clear sky
167,Mecca,SA,21.4267,39.8261,93.43,43,42,10.6,scattered clouds
168,Steinbach,DE,50.1667,8.5667,72.88,82,20,5.75,few clouds
169,Tadine,NC,-21.55,167.8833,67.84,64,100,12.48,overcast clouds
170,Mantua,IT,45.1667,10.7833,87.49,48,94,3.0,overcast clouds
171,San Vicente,AR,-26.6167,-54.1333,79.03,25,7,3.74,light rain
172,Pandan,PH,14.0453,124.1694,81.16,83,100,8.7,overcast clouds
173,Molokovo,RU,58.1661,36.7628,54.84,95,81,5.28,broken clouds
174,Tiksi,RU,71.6872,128.8694,45.99,55,8,8.14,clear sky
175,Egvekinot,RU,66.3167,-179.1667,26.98,77,100,25.21,overcast clouds
176,Sussex,US,41.1834,-74.6663,76.48,57,1,8.05,clear sky
177,San Patricio,US,28.017,-97.5169,87.78,49,0,10.0,clear sky
178,Kenai,US,60.5544,-151.2583,47.14,98,40,0.0,scattered clouds
179,Gat,IL,31.61,34.7642,79.81,55,2,10.69,clear sky
180,Jieshi,CN,22.8134,115.8257,84.65,82,85,12.73,overcast clouds
181,Boyolangu,ID,-8.1181,111.8935,74.88,94,94,6.85,light rain
182,Susanville,US,40.4163,-120.653,63.09,54,0,1.59,clear sky
183,Vostok,RU,46.4856,135.8833,50.27,95,100,1.88,moderate rain
184,Port Pirie,AU,-33.1833,138.0167,53.69,88,11,11.61,few clouds
185,Rawson,AR,-43.3002,-65.1023,58.68,65,100,25.39,overcast clouds
186,Tevaitoa,PF,-16.7833,-151.5,77.63,62,27,12.46,scattered clouds
187,Mar Del Plata,AR,-38.0023,-57.5575,55.42,88,90,9.22,overcast clouds
188,Atar,MR,20.5169,-13.0499,104.5,23,93,5.1,overcast clouds
189,Sorong,ID,-0.8833,131.25,78.37,86,100,4.21,overcast clouds
190,Rio Gallegos,AR,-51.6226,-69.2181,50.05,29,0,10.36,clear sky
191,Pisco,PE,-13.7,-76.2167,62.02,86,91,7.4,overcast clouds
192,Bria,CF,6.5423,21.9863,74.55,93,29,4.81,light rain
193,Asau,RO,46.4333,26.4,74.75,50,75,2.8,broken clouds
194,Pevek,RU,69.7008,170.3133,28.0,79,85,14.29,overcast clouds
195,Kings Mountain,US,35.2451,-81.3412,79.72,47,1,1.99,clear sky
196,Kodiak,US,57.79,-152.4072,38.71,87,1,5.75,clear sky
197,Atasu,KZ,48.6814,71.6433,54.52,84,100,12.17,overcast clouds
198,Namatanai,PG,-3.6667,152.4333,79.16,80,97,5.75,overcast clouds
199,Grindavik,IS,63.8424,-22.4338,52.27,87,75,10.36,broken clouds
200,Khani,GE,41.9563,42.9566,62.17,98,94,2.93,overcast clouds
201,Presidente Franco,PY,-25.5333,-54.6167,81.12,41,0,5.75,clear sky
202,Faya,SA,18.3851,42.4509,75.72,67,81,8.48,broken clouds
203,Pekalongan,ID,-6.8886,109.6753,79.99,79,100,2.39,overcast clouds
204,Sabancuy,MX,18.9667,-91.1833,78.76,83,100,9.89,overcast clouds
205,Namibe,AO,-15.1961,12.1522,68.76,88,11,12.57,few clouds
206,Farafenni,GM,13.5667,-15.6,85.41,71,81,9.73,broken clouds
207,Cap Malheureux,MU,-19.9842,57.6142,71.47,77,12,5.99,light rain
208,Ola,RU,59.5833,151.2833,36.05,60,0,9.28,clear sky
209,Petropavlovskoye,RU,52.0712,84.107,60.03,46,100,9.13,overcast clouds
210,Miri,MY,4.4148,114.0089,79.25,80,96,2.15,light rain
211,Kralendijk,BQ,12.15,-68.2667,82.6,80,93,18.99,overcast clouds
212,Nouadhibou,MR,20.931,-17.0347,76.69,94,98,6.87,overcast clouds
213,Faanui,PF,-16.4833,-151.75,77.5,61,20,13.0,few clouds
214,Fortuna,US,40.5982,-124.1573,59.94,74,40,3.0,scattered clouds
215,Dingle,PH,10.9995,122.6711,76.57,88,100,2.37,overcast clouds
216,Garowe,SO,8.4054,48.4845,88.81,31,90,17.98,overcast clouds
217,Brookhaven,US,31.5791,-90.4407,80.8,57,0,5.26,clear sky
218,Atikokan,CA,48.7555,-91.6216,58.95,53,7,12.06,clear sky
219,Marystown,CA,47.1666,-55.1483,64.74,78,40,26.35,scattered clouds
220,Regina,CA,50.4501,-104.6178,55.17,82,100,1.01,overcast clouds
221,Bambous Virieux,MU,-20.3428,57.7575,71.22,77,7,17.81,clear sky
222,Smidovich,RU,48.6,133.8167,51.03,92,100,11.05,overcast clouds
223,Tsumeb,NA,-19.2333,17.7167,84.88,14,0,12.12,clear sky
224,Severo-Kurilsk,RU,50.6789,156.125,46.11,73,62,10.87,broken clouds
225,Lebu,CL,-37.6167,-73.65,53.15,89,100,23.29,overcast clouds
226,Lasa,IT,46.6166,10.7002,76.91,81,96,2.3,overcast clouds
227,Taoudenni,ML,22.6783,-3.9836,113.76,6,13,11.25,few clouds
228,Da Nang,VN,16.0678,108.2208,78.78,94,90,19.57,overcast clouds
229,Sanary-Sur-Mer,FR,43.1178,5.8001,86.85,69,0,5.01,clear sky
230,Vung Tau,VN,10.346,107.0843,79.3,83,100,16.84,overcast clouds
231,Joensuu,FI,62.6012,29.7632,54.27,94,75,3.44,broken clouds
232,Ostrovnoy,RU,68.0531,39.5131,41.11,77,61,15.03,broken clouds
233,Aljezur,PT,37.3191,-8.8033,75.7,63,8,8.05,clear sky
234,Sulangan,PH,11.1373,123.7228,83.37,73,97,4.59,overcast clouds
235,Itarema,BR,-2.9248,-39.9167,88.02,57,14,20.09,few clouds
236,Port Lincoln,AU,-34.7333,135.8667,53.22,62,85,18.01,overcast clouds
237,Kudahuvadhoo,MV,2.6708,72.8944,83.82,66,100,7.43,overcast clouds
238,Tayoltita,MX,24.0833,-105.9333,80.01,38,0,6.51,clear sky
239,Vao,NC,-22.6667,167.4833,66.94,63,70,13.27,broken clouds
240,Veracruz,MX,19.3333,-96.6667,80.87,66,70,1.77,broken clouds
241,Chapais,CA,49.7834,-74.8492,64.83,49,29,11.65,scattered clouds
242,Sao Joao Da Barra,BR,-21.6403,-41.0511,78.89,69,100,7.74,moderate rain
243,Arraial Do Cabo,BR,-22.9661,-42.0278,75.06,83,75,11.5,broken clouds
244,Sindor,RU,62.8629,51.8905,42.66,94,100,7.05,overcast clouds
245,Argelia,CO,2.2556,-77.2488,69.51,85,98,1.7,light rain
246,Paamiut,GL,61.994,-49.6678,43.75,93,100,8.93,light rain
247,Matara,LK,5.9485,80.5353,79.0,85,100,9.66,overcast clouds
248,Solonytsivka,UA,49.9968,36.0346,72.01,37,0,6.71,clear sky
249,Santa Maria,BR,-29.6842,-53.8069,68.76,56,0,2.39,clear sky
250,Matane,CA,48.8286,-67.522,63.84,43,36,16.91,scattered clouds
251,Port Blair,IN,11.6667,92.75,81.36,85,79,18.37,broken clouds
252,Charleston,US,32.7766,-79.9309,83.01,59,1,7.0,clear sky
253,Eureka,US,40.8021,-124.1637,60.21,92,0,1.99,clear sky
254,Teguldet,RU,57.3064,88.1667,47.34,96,79,8.63,broken clouds
255,Longyearbyen,SJ,78.2186,15.6401,33.64,75,0,3.44,clear sky
256,Uige,AO,-7.6087,15.0613,72.27,73,95,6.35,overcast clouds
257,Broome,US,42.2506,-75.833,73.62,63,94,3.0,overcast clouds
258,Guerrero Negro,MX,27.9769,-114.0611,77.58,70,100,3.33,overcast clouds
259,Almaznyy,RU,48.0448,40.045,73.54,36,9,7.23,clear sky
260,Cedral,MX,23.8,-100.7333,68.36,52,2,6.4,clear sky
261,Umm Kaddadah,SD,13.6017,26.6876,94.42,30,12,9.91,few clouds
262,Ancud,CL,-41.8697,-73.8203,51.42,94,100,17.18,light rain
263,Adrar,MR,20.5022,-10.0711,102.92,21,82,4.34,broken clouds
264,Rock Hill,US,34.9249,-81.0251,81.75,49,1,4.61,clear sky
265,Oranjemund,NA,-28.55,16.4333,59.97,66,13,6.35,few clouds
266,Mount Isa,AU,-20.7333,139.5,62.37,48,15,5.75,few clouds
267,Moussoro,TD,13.6408,16.4901,98.64,27,22,6.76,few clouds
268,Pimenta Bueno,BR,-11.6725,-61.1936,98.06,33,6,2.93,clear sky
269,Central Point,US,42.376,-122.9164,62.01,84,1,3.44,clear sky
270,Roblin,CA,51.23,-101.3565,53.38,57,100,9.53,overcast clouds
271,Champerico,GT,14.3,-91.9167,85.03,89,100,10.25,overcast clouds
272,Barrhead,GB,55.7992,-4.3929,64.13,79,90,5.01,overcast clouds
273,Victor Harbor,AU,-35.5667,138.6167,55.49,72,24,15.08,few clouds
274,Khandyga,RU,62.6667,135.6,41.36,72,49,0.29,scattered clouds
275,Tigzirt,DZ,36.8886,4.1198,79.86,61,27,8.16,scattered clouds
276,Forestville,US,38.8451,-76.875,79.38,53,1,6.91,clear sky
277,Tigil,RU,57.8,158.6667,35.02,79,92,3.8,overcast clouds
278,Iqaluit,CA,63.7506,-68.5145,38.57,51,77,4.56,broken clouds
279,San Carlos De Bariloche,AR,-41.1456,-71.3082,51.55,66,75,8.05,light intensity drizzle
280,Borogontsy,RU,62.6683,131.1683,43.14,60,86,2.37,overcast clouds
281,Ardesen,TR,41.1911,40.9875,67.96,80,99,6.64,overcast clouds
282,Pringsewu,ID,-5.3582,104.9744,74.61,96,95,3.06,overcast clouds
283,Kinsale,IE,51.7075,-8.5306,61.97,77,75,9.22,broken clouds
284,Lichinga,MZ,-13.3128,35.2406,67.21,35,18,2.73,few clouds
285,Vermilion,US,40.1667,-87.7506,79.39,62,1,1.99,clear sky
286,Balaka,MW,-14.9793,34.9558,75.94,33,5,8.34,clear sky
287,Zhigansk,RU,66.7697,123.3711,44.2,66,12,9.6,few clouds
288,Komsomolskiy,UZ,40.4272,71.7189,74.12,27,87,6.91,overcast clouds
289,Ust-Nera,RU,64.5667,143.2,37.96,70,73,2.8,broken clouds
290,Nakhon Phanom,TH,17.3333,104.4167,75.76,94,100,1.74,moderate rain
291,Chukhloma,RU,58.7525,42.6825,49.01,74,100,3.24,overcast clouds
292,Zhangye,CN,38.9342,100.4517,74.62,29,27,3.33,scattered clouds
293,Verkhnyaya Inta,RU,65.9811,60.3094,36.99,92,100,11.25,overcast clouds
294,Juneau,US,58.3019,-134.4197,53.83,95,90,4.0,moderate rain
295,Soyaux,FR,45.65,0.2,75.18,51,75,5.75,broken clouds
296,Port Victoria,KE,0.0939,33.9756,72.34,68,42,8.12,scattered clouds
297,Durazno,UY,-33.4131,-56.5006,64.31,70,22,9.01,few clouds
298,Menongue,AO,-14.6585,17.691,86.16,14,56,8.97,broken clouds
299,Poum,NC,-20.2333,164.0167,69.76,69,7,12.64,clear sky
300,Benguela,AO,-12.5763,13.4055,73.87,83,49,8.37,scattered clouds
301,Nadym,RU,65.5333,72.5167,44.92,61,100,16.22,overcast clouds
302,Dong Hoi,VN,17.4833,106.6,78.8,87,100,5.14,heavy intensity rain
303,Astakos,GR,38.5356,21.0814,76.98,54,93,2.42,overcast clouds
304,Walla Walla,US,46.0646,-118.343,65.37,65,75,4.0,broken clouds
305,Pilar,BR,-9.5972,-35.9567,85.93,48,39,10.8,scattered clouds
306,Saint-Leu,RE,-21.15,55.2833,68.86,76,41,10.98,scattered clouds
307,Ingleside,US,27.8778,-97.2117,87.89,58,1,1.99,clear sky
308,Hsinchu,TW,24.8036,120.9686,85.98,71,100,2.93,light rain
309,Yei,SS,4.095,30.6779,70.5,89,80,1.28,light rain
310,Lompoc,US,34.6391,-120.4579,67.68,89,90,0.0,mist
311,Zhongxing,CN,33.7039,118.6792,71.67,97,3,6.78,light rain
312,Laguna,US,38.421,-121.4238,80.42,73,1,1.99,clear sky
313,Saint Anthony,US,45.0205,-93.218,76.14,72,1,3.0,clear sky
314,Broken Hill,AU,-31.95,141.4333,54.18,75,0,14.61,clear sky
315,Katsuura,JP,35.1333,140.3,77.11,92,93,8.34,overcast clouds
316,Russellville,US,35.2784,-93.1338,82.18,54,1,5.75,clear sky
317,Manokwari,ID,-0.8667,134.0833,78.39,74,60,2.66,broken clouds
318,Ocampo,MX,21.65,-101.5,61.63,60,19,17.76,few clouds
319,Anakapalle,IN,17.6833,83.0167,78.75,91,100,10.33,overcast clouds
320,Kisaran,ID,2.9845,99.6158,75.61,96,100,1.74,overcast clouds
321,Geraldton,AU,-28.7667,114.6,50.41,87,0,8.05,clear sky
322,Avigliano,IT,40.7329,15.72,64.74,57,100,4.7,overcast clouds
323,Nanortalik,GL,60.1432,-45.2371,42.93,84,100,16.84,moderate rain
324,Saint-Augustin,CA,51.226,-58.6502,57.92,79,99,20.69,overcast clouds
325,Calabozo,VE,8.9242,-67.4293,88.09,51,100,8.75,overcast clouds
326,Ilulissat,GL,69.2167,-51.1,28.42,34,1,5.75,clear sky
327,Beauchamps,FR,50.012,1.5176,68.38,64,12,11.07,few clouds
328,Hohhot,CN,40.8106,111.6522,72.07,46,72,11.23,broken clouds
329,Cabedelo,BR,-6.9811,-34.8339,84.87,61,72,16.78,broken clouds
330,Panalingaan,PH,8.7842,117.4231,79.41,88,100,5.1,overcast clouds
331,Melfort,CA,52.8667,-104.6177,49.77,61,100,5.08,overcast clouds
332,San Quintin,MX,30.4833,-115.95,76.01,74,5,7.76,clear sky
333,Kawalu,ID,-7.3817,108.2082,72.25,95,100,1.52,overcast clouds
334,Kavaratti,IN,10.5669,72.642,81.77,83,93,19.22,overcast clouds
335,Zhezkazgan,KZ,47.8043,67.7144,59.04,72,99,15.08,overcast clouds
336,Miles City,US,46.4083,-105.8406,69.51,59,90,5.75,overcast clouds
337,Adamovka,RU,51.5223,59.9396,49.68,47,23,12.95,few clouds
338,Airai,TL,-8.9266,125.4092,60.13,89,58,1.05,broken clouds
339,Mayo,US,38.8876,-76.5119,80.26,56,20,3.0,few clouds
340,Tinskoy,RU,56.1525,96.9161,46.6,75,66,4.54,broken clouds
341,Buchanan,LR,5.8808,-10.0467,82.71,71,63,7.05,broken clouds
342,Seoul,KR,37.5683,126.9778,71.04,82,0,1.48,clear sky
343,Kumbhraj,IN,24.3667,77.05,76.24,92,71,6.53,broken clouds
344,Qaqortoq,GL,60.7167,-46.0333,57.7,78,100,19.06,moderate rain
345,Sri Aman,MY,1.2376,111.4621,75.07,93,91,1.79,overcast clouds
346,Hanting,CN,36.7708,119.2108,73.0,86,0,7.38,light rain
347,Kisangani,CD,0.5167,25.2,73.58,87,94,3.2,overcast clouds
348,Didwana,IN,27.4,74.5667,79.09,86,99,9.04,very heavy rain
349,Kotido,UG,2.9806,34.1331,79.86,41,83,11.01,broken clouds
350,Ketchikan,US,55.3422,-131.6461,54.07,100,90,13.8,moderate rain
351,Yerofey Pavlovich,RU,53.9667,121.9667,45.45,97,95,1.74,overcast clouds
352,Daru,PG,-9.0763,143.2092,77.77,91,100,13.11,overcast clouds
353,Yuli,NG,9.6989,10.2744,85.87,70,97,4.43,overcast clouds
354,Teresopolis,BR,-22.4122,-42.9656,79.05,70,98,2.8,overcast clouds
355,Gravdal,NO,68.1214,13.5031,49.42,66,34,6.46,scattered clouds
356,Narsaq,GL,60.9167,-46.05,57.42,83,100,17.34,light rain
357,Sur,OM,22.5667,59.5289,86.56,65,56,4.85,broken clouds
358,Camalu,MX,30.85,-116.0667,83.43,67,3,5.86,clear sky
359,Gushikawa,JP,26.3544,127.8686,81.99,89,90,12.66,overcast clouds
360,Garsten,AT,47.9987,14.4035,74.39,75,64,3.6,broken clouds
361,Callosa De Segura,ES,38.125,-0.8782,93.22,54,2,8.01,clear sky
362,Lakes Entrance,AU,-37.8811,147.981,56.16,95,100,8.16,light rain
363,Severodvinsk,RU,64.5635,39.8302,46.51,73,6,9.42,clear sky
364,Syriam,MM,16.7722,96.2378,80.71,83,75,3.44,broken clouds
365,Martinho Campos,BR,-19.3317,-45.2369,96.26,14,83,4.94,broken clouds
366,Pangody,RU,65.85,74.4859,45.93,68,100,7.74,overcast clouds
367,Ulaangom,MN,49.9811,92.0667,50.94,49,81,2.62,broken clouds
368,Uruacu,BR,-14.5247,-49.1408,102.58,10,2,3.02,clear sky
369,Dukat,RU,62.55,155.55,23.41,86,23,3.98,few clouds
370,Caruray,PH,10.3094,119.0128,79.75,87,100,4.05,overcast clouds
371,Codrington,AU,-38.2667,141.9667,47.44,78,81,15.46,broken clouds
372,Evensk,RU,61.95,159.2333,34.57,65,95,8.97,overcast clouds
373,Ibipeba,BR,-11.6408,-42.0111,92.05,22,5,8.34,clear sky
374,Mango,US,27.9797,-82.3065,85.14,84,1,4.61,clear sky
375,Zhuhai,CN,22.2769,113.5678,87.71,84,0,8.05,light rain
376,Ahipara,NZ,-35.1667,173.1667,52.65,72,47,5.59,scattered clouds
377,Floro,NO,61.5996,5.0328,58.96,94,75,10.36,broken clouds
378,Acapulco,MX,16.8634,-99.8901,80.42,83,90,3.44,overcast clouds
379,Rorvik,NO,64.8621,11.2373,55.62,79,78,12.37,broken clouds
380,Meulaboh,ID,4.1363,96.1285,77.65,87,100,2.59,overcast clouds
381,Puerto Ayacucho,VE,5.6639,-67.6236,84.61,71,88,4.68,overcast clouds
382,Valadares,PT,41.1474,-7.9812,75.54,40,89,5.32,overcast clouds
383,Waipawa,NZ,-41.4122,175.5153,50.04,91,4,5.79,clear sky
384,Boa Vista,BR,2.8197,-60.6733,91.38,46,40,10.36,scattered clouds
385,Katobu,ID,-4.9408,122.5276,73.81,95,100,3.87,overcast clouds
386,Esik,KZ,43.3552,77.4525,58.42,50,39,4.45,scattered clouds
387,Husavik,IS,66.0449,-17.3389,47.44,82,100,2.82,overcast clouds
388,Samana,DO,19.2056,-69.3369,84.16,78,40,6.91,scattered clouds
389,Altagracia De Orituco,VE,9.8601,-66.3814,87.55,44,59,6.67,broken clouds
390,Kulevcha,UA,46.0303,29.9361,73.49,39,87,5.41,overcast clouds
391,Mvuma,ZW,-19.2792,30.5283,63.3,30,0,7.85,clear sky
392,Neiafu,TO,-18.65,-173.9833,75.88,94,40,0.0,light rain
393,Salalah,OM,17.0151,54.0924,80.69,94,75,5.75,broken clouds
394,Luena,AO,-11.7833,19.9167,83.64,16,82,6.73,broken clouds
395,Lavrentiya,RU,65.5833,-171.0,40.96,88,100,14.92,light rain
396,Tura,IN,25.5198,90.2201,76.75,94,75,3.51,broken clouds
397,Novichikha,RU,52.204,81.3877,55.08,83,100,18.45,light rain
398,Genhe,CN,50.7833,121.5167,38.88,95,17,1.63,few clouds
399,Hoi An,VN,15.8794,108.335,78.76,89,100,23.47,overcast clouds
400,Uvira,CD,-3.4067,29.1458,78.58,51,84,1.81,broken clouds
401,Bobo Dioulasso,BF,11.1771,-4.2979,84.43,64,70,2.55,light rain
402,Oistins,BB,13.0667,-59.5333,89.69,62,40,16.11,scattered clouds
403,Klaksvik,FO,62.2266,-6.589,52.72,76,77,5.7,broken clouds
404,Naro-Fominsk,RU,55.3875,36.7331,62.67,88,99,4.74,overcast clouds
405,Itapirapua,BR,-15.8233,-50.6133,106.14,13,10,2.44,clear sky
406,Tazmalt,DZ,36.3868,4.3989,87.93,31,25,8.01,scattered clouds
407,Synya,RU,65.3718,58.0387,39.13,76,98,4.61,overcast clouds
408,Honiara,SB,-9.4333,159.95,76.95,87,36,6.89,scattered clouds
409,Sile,TR,41.1754,29.6133,71.56,62,16,1.01,few clouds
410,Arteaga,MX,18.4667,-102.4167,71.91,83,57,3.04,broken clouds
411,Aswan,EG,24.0934,32.907,94.51,16,3,14.85,clear sky
412,Nemuro,JP,43.3236,145.575,61.88,86,100,8.72,overcast clouds
413,Tiarei,PF,-17.5333,-149.3333,69.82,66,47,14.85,scattered clouds
414,Demyansk,RU,57.643,32.466,62.91,78,14,4.09,few clouds
415,Marsh Harbour,BS,26.5412,-77.0636,84.36,70,13,6.17,few clouds
416,Zhicheng,CN,30.2956,111.5047,75.61,73,44,4.97,light rain
417,Clarence Town,AU,-32.5833,151.7833,61.56,47,0,4.23,clear sky
418,Ahuimanu,US,21.4447,-157.8378,75.85,81,75,8.05,broken clouds
419,Shenjiamen,CN,29.9576,122.298,77.83,90,77,11.83,light rain
420,Zhanakorgan,KZ,43.9098,67.2495,66.24,22,0,8.72,clear sky
421,Akcakoca,TR,41.0866,31.1162,67.28,71,9,2.89,clear sky
422,Jiangyou,CN,31.7667,104.7167,73.36,78,66,4.12,light rain
423,Selma,US,36.5708,-119.6121,80.19,52,1,8.05,clear sky
424,Jardin,CO,5.599,-75.8198,71.19,80,90,0.54,overcast clouds
425,Hami,CN,42.8,93.45,71.82,32,97,9.4,overcast clouds
426,Palmer,US,42.1584,-72.3287,75.78,56,30,1.01,scattered clouds
427,Ronne,DK,55.1009,14.7066,64.31,94,40,10.36,scattered clouds
428,Qasigiannguit,GL,68.8193,-51.1922,28.65,44,0,8.25,clear sky
429,Helong,CN,42.5397,128.9972,50.2,90,19,5.17,few clouds
430,Kyzyl-Suu,KG,42.3414,78.0056,56.43,55,64,4.79,broken clouds
431,Bac Lieu,VN,9.285,105.7244,78.42,86,100,11.56,overcast clouds
432,Palana,RU,59.1167,159.9667,38.86,73,95,13.2,overcast clouds
433,Lamu,KE,-2.2717,40.902,79.02,79,9,15.73,clear sky
434,Kruisfontein,ZA,-34.0033,24.7314,61.88,71,100,5.95,overcast clouds
435,Giyani,ZA,-23.3025,30.7187,72.45,29,0,5.08,clear sky
436,Luderitz,NA,-26.6481,15.1594,61.84,63,15,11.95,few clouds
437,Moree,AU,-29.4667,149.85,57.22,54,0,14.97,clear sky
438,College,US,64.8569,-147.8028,42.75,92,40,5.75,scattered clouds
439,Bathsheba,BB,13.2167,-59.5167,90.21,78,40,16.11,scattered clouds
440,Port Hedland,AU,-20.3167,118.5667,68.05,94,9,9.22,clear sky
441,Yining,CN,29.0361,114.5636,74.57,92,58,2.15,light rain
442,Halifax,CA,44.6453,-63.5724,70.21,60,0,1.99,clear sky
443,Constantine,DZ,36.365,6.6147,80.11,38,1,13.27,clear sky
444,Te Anau,NZ,-45.4167,167.7167,40.6,97,100,8.03,overcast clouds
445,Port Shepstone,ZA,-30.7414,30.455,71.73,76,0,18.21,clear sky
446,Aykhal,RU,66.0,111.5,42.98,78,34,3.87,scattered clouds
447,Shache,CN,38.4167,77.2406,76.6,25,100,14.58,overcast clouds
448,Pahrump,US,36.2083,-115.9839,92.25,28,0,5.99,clear sky
449,Provideniya,RU,64.3833,-173.3,41.81,88,100,12.66,light rain
450,Port Augusta,AU,-32.5,137.7667,53.74,83,0,8.97,clear sky
451,Rimavska Sobota,SK,48.3828,20.0224,72.73,41,3,2.53,clear sky
452,Poya,NC,-21.35,165.15,65.5,66,36,4.09,scattered clouds
453,Wachtberg,DE,50.6213,7.1259,70.92,75,68,7.14,broken clouds
454,Vanimo,PG,-2.6741,141.3028,77.74,89,29,6.35,scattered clouds
455,Flinders,AU,-34.5833,150.8552,66.2,61,0,1.01,clear sky
456,Moskovskiy,RU,55.5991,37.355,62.38,88,0,4.47,clear sky
457,Swan River,CA,52.1058,-101.2676,53.31,50,84,7.16,broken clouds
458,Kirensk,RU,57.7853,108.1119,46.44,98,100,1.74,light rain
459,Conceicao Do Araguaia,BR,-8.2578,-49.2647,104.38,19,5,5.46,clear sky
460,Inhambane,MZ,-23.865,35.3833,68.92,71,5,8.77,clear sky
461,Senanga,ZM,-16.1167,23.2667,83.44,18,23,9.33,few clouds
462,Bhikhi,IN,30.0667,75.5333,78.35,73,99,6.26,overcast clouds
463,Olden,NO,61.8364,6.8064,62.17,93,98,2.82,light rain
464,Ossora,RU,59.2353,163.0719,36.77,83,90,12.86,overcast clouds
465,Mackay,AU,-21.15,149.2,64.04,69,97,7.43,overcast clouds
466,Rurrenabaque,BO,-14.4413,-67.5278,91.96,38,29,2.73,scattered clouds
467,Murray,US,40.6669,-111.888,75.07,80,90,6.91,shower rain
468,Jingdezhen,CN,29.2947,117.2079,76.08,88,3,4.29,light rain
469,Calamar,CO,10.2511,-74.9146,84.15,76,100,6.04,overcast clouds
470,Yumen,CN,40.2833,97.2,66.54,31,96,14.36,overcast clouds
471,Pathein,MM,16.7833,94.7333,75.78,97,100,5.46,overcast clouds
472,Nagato,JP,34.3833,131.2,74.07,85,54,3.53,broken clouds
473,Bonnyville,CA,54.2668,-110.735,58.12,50,67,7.56,broken clouds
474,Mount Pleasant,US,32.7941,-79.8626,83.3,60,1,7.0,clear sky
475,Tukrah,LY,32.5341,20.5791,87.19,44,0,8.12,clear sky
476,Maragogi,BR,-9.0122,-35.2225,81.07,58,30,7.65,scattered clouds
477,Ponta Delgada,PT,37.7333,-25.6667,72.32,73,40,11.5,scattered clouds
478,Szczytno,PL,53.5626,20.9875,73.33,46,0,4.61,clear sky
479,Spas-Klepiki,RU,55.1347,40.1767,57.69,79,65,4.32,broken clouds
480,Potiskum,NG,11.7091,11.0694,92.79,43,31,5.88,scattered clouds
481,Port Hardy,CA,50.6996,-127.4199,57.18,90,99,2.37,overcast clouds
482,Sao Joaquim,BR,-28.2939,-49.9317,64.35,41,0,5.12,clear sky
483,Tayga,RU,56.06,85.6197,50.92,97,91,10.02,moderate rain
484,Reconquista,AR,-29.15,-59.65,75.65,36,0,12.12,clear sky
485,Nedjo,ET,9.5046,35.5019,59.99,95,55,2.75,moderate rain
486,Knokke-Heist,BE,51.3333,3.3333,69.1,76,87,5.99,overcast clouds
487,Terme,TR,41.2092,36.9739,71.53,76,31,5.28,scattered clouds
488,Ayan,RU,56.45,138.1667,52.88,79,44,6.89,scattered clouds
489,Illapel,CL,-31.6308,-71.1653,66.33,41,100,8.3,overcast clouds
490,Moose Factory,CA,51.2585,-80.6094,57.18,100,90,9.22,light rain
491,Inongo,CD,-1.95,18.2667,72.43,86,77,6.26,light rain
492,Pochutla,MX,15.7432,-96.4661,82.22,85,100,1.57,overcast clouds
493,Rantepao,ID,-2.9701,119.8978,66.4,98,88,2.48,overcast clouds
494,Whyalla,AU,-33.0333,137.5833,53.49,76,90,5.75,overcast clouds
495,Tabriz,IR,38.08,46.2919,80.06,14,0,4.61,clear sky
496,Kalyazin,RU,57.2403,37.8433,56.17,90,96,7.34,overcast clouds
497,Hobyo,SO,5.3505,48.5268,78.55,84,18,29.55,few clouds
498,Grand Gaube,MU,-20.0064,57.6608,71.38,77,14,5.99,light rain
499,Samarai,PG,-10.6167,150.6667,78.8,84,99,15.57,overcast clouds
500,Port Antonio,JM,18.18,-76.4612,91.9,63,55,9.1,broken clouds
501,Havre,FR,49.5833,0.3333,68.49,72,0,4.61,clear sky
502,Deputatskiy,RU,69.3,139.9,35.69,69,99,3.56,overcast clouds
503,Mailsi,PK,29.8003,72.1758,82.24,72,23,13.76,few clouds
504,Matadi,CD,-5.8167,13.45,90.09,48,83,11.07,broken clouds
505,Pacific Grove,US,36.6177,-121.9166,67.57,94,75,1.99,mist
506,Raymond Terrace,AU,-32.75,151.75,61.68,81,0,3.44,clear sky
507,Brae,GB,60.3964,-1.353,53.51,82,100,18.41,overcast clouds
508,Muli,MV,2.9167,73.5667,83.75,68,100,8.84,overcast clouds
509,Luga,RU,58.7372,29.8453,64.81,69,56,4.12,broken clouds
510,Tynda,RU,55.1667,124.7167,41.14,95,13,1.21,few clouds
511,Plettenberg Bay,ZA,-34.0527,23.3716,62.06,78,89,1.77,overcast clouds
512,Avera,US,33.194,-82.5271,83.68,36,0,5.32,clear sky
513,Parkes,AU,-33.1333,148.1833,55.54,47,0,14.72,clear sky
514,Lata,PT,40.1629,-8.3327,86.36,44,73,2.86,broken clouds
515,Mabaruma,GY,8.2,-59.7833,86.18,64,77,5.19,broken clouds
516,Namanga,KE,-2.5433,36.7905,71.8,44,80,9.62,broken clouds
517,Guozhen,CN,34.3659,107.359,73.62,77,0,3.0,clear sky
518,Smithers,CA,54.7804,-127.1743,44.92,100,75,5.75,mist
519,Phangnga,TH,8.4509,98.5298,82.44,95,100,3.15,overcast clouds
520,Santa Isabel Do Rio Negro,BR,-0.4139,-65.0192,92.25,50,49,3.04,scattered clouds
521,Hambantota,LK,6.1241,81.1185,80.62,78,92,18.57,overcast clouds
522,Chiplun,IN,17.5333,73.5167,75.0,98,56,3.83,broken clouds
523,Russell,US,32.3502,-85.1999,82.11,47,0,7.05,clear sky
524,Wright,US,45.1833,-93.9502,75.56,73,1,8.05,clear sky
525,Whitehorse,CA,60.7161,-135.0538,49.01,88,100,3.58,overcast clouds
526,Komsomolsk,UA,49.0097,33.6455,72.07,41,70,4.18,broken clouds
527,Inzai,JP,35.798,140.1839,76.78,94,75,5.75,mist
528,Uthai Thani,TH,15.3833,99.55,74.14,89,96,4.76,light rain
529,Babu,CN,24.4167,111.5167,83.25,72,47,2.24,scattered clouds
530,Milton,US,34.1322,-84.3007,81.63,68,1,3.89,clear sky
531,Gizo,SB,-8.103,156.8419,81.01,78,76,8.57,light rain
532,Chirongui,YT,-12.9319,45.1483,76.93,72,5,10.36,clear sky
533,Port-Gentil,GA,-0.7193,8.7815,77.88,85,100,15.14,overcast clouds
534,Okato,NZ,-39.2,173.8833,44.69,83,36,8.93,scattered clouds
535,Caravelas,BR,-17.7125,-39.2481,82.78,58,4,10.65,clear sky
536,Angoche,MZ,-16.2325,39.9086,74.75,76,5,13.51,clear sky
537,Marrakesh,MA,31.6315,-8.0083,104.07,16,40,6.91,scattered clouds
538,Coquimbo,CL,-29.9533,-71.3436,56.93,76,90,14.97,overcast clouds
539,Sheltozero,RU,61.3667,35.3667,48.15,90,100,1.52,light rain
540,Ponta Do Sol,PT,32.6667,-17.1,83.03,69,0,7.31,clear sky
541,Suntar,RU,62.1444,117.6319,51.67,91,80,0.4,broken clouds
542,Arua,UG,3.0201,30.9111,68.11,82,74,1.41,light rain
543,Elbrus,RU,43.2577,42.6443,51.82,84,31,3.78,light rain
544,Skjervoy,NO,70.0311,20.9714,48.11,70,82,8.46,broken clouds
545,Choachi,CO,4.529,-73.9227,69.39,97,100,2.89,overcast clouds
546,Eyl,SO,7.9803,49.8164,79.72,75,100,23.89,overcast clouds
547,Holme,DK,56.1138,10.1725,69.37,92,85,10.38,overcast clouds
548,Huanren,CN,41.2647,125.3667,51.94,95,5,3.15,clear sky
549,Clearwater,US,27.9659,-82.8001,84.9,79,1,5.01,clear sky
550,Khangarh,PK,29.9173,71.1618,84.27,59,13,13.18,few clouds
551,Nsunga,TZ,-1.1439,31.3947,71.78,50,29,4.94,scattered clouds
552,Olafsvik,IS,64.8945,-23.7142,46.89,68,58,14.09,broken clouds
553,Harper,LR,4.375,-7.7169,82.89,71,60,10.18,broken clouds
554,Voykove,UA,45.3826,36.4372,70.83,69,100,5.82,light rain
555,Jinxiang,CN,27.4327,120.6062,78.48,87,83,6.98,light rain
556,Emerald,AU,-23.5333,148.1667,58.15,89,3,8.5,clear sky
557,Shar,KZ,49.5886,81.0453,66.63,26,100,15.48,overcast clouds
558,Lieksa,FI,63.3167,30.0167,52.25,79,73,3.13,broken clouds
559,Sao Filipe,CV,14.8961,-24.4956,79.75,75,85,5.61,overcast clouds
560,Fairbanks,US,64.8378,-147.7164,42.76,92,1,0.0,clear sky
561,Fort Saint James,CA,54.4333,-124.25,51.96,86,100,2.06,overcast clouds
562,Filingue,NE,14.3521,3.3168,99.99,33,49,5.93,scattered clouds
563,Sobolevo,RU,54.4299,31.8996,63.79,71,78,5.88,broken clouds
564,Kadoma,JP,34.7333,135.5833,76.98,73,84,1.39,broken clouds
565,Blythe,US,33.6103,-114.5964,96.03,48,1,4.61,clear sky
566,Flin Flon,CA,54.7682,-101.865,49.64,52,90,9.89,overcast clouds
567,Benghazi,LY,32.1167,20.0667,85.55,53,0,7.52,clear sky
568,Pulandian,CN,39.3953,121.9669,73.53,88,0,5.23,light rain
569,Huarmey,PE,-10.0681,-78.1522,67.06,76,91,9.84,overcast clouds
570,La Grande,US,45.3246,-118.0877,59.58,83,0,2.44,clear sky
571,Tirumala,IN,13.6833,79.35,74.59,67,100,6.62,overcast clouds
572,Goroka,PG,-6.0834,145.3873,59.04,97,89,0.92,overcast clouds
573,Stornoway,GB,58.2093,-6.3865,59.94,94,90,20.71,overcast clouds
574,Palencia,ES,42.4167,-4.5,75.92,29,99,9.13,overcast clouds
575,Khudumelapye,BW,-23.8833,24.75,73.6,17,0,9.8,clear sky
576,Takaka,NZ,-40.85,172.8,47.55,83,9,5.86,clear sky
577,Vallenar,CL,-28.5708,-70.7581,70.59,27,6,11.88,clear sky
578,Kangaatsiaq,GL,68.3065,-53.4641,30.94,54,0,24.0,clear sky
579,Kimbe,PG,-5.5502,150.1429,73.96,93,93,4.94,overcast clouds
580,Vila,PT,42.0304,-8.1588,71.33,56,100,4.21,overcast clouds
581,Arivonimamo,MG,-19.0167,47.1833,57.25,71,33,11.95,scattered clouds
582,Rzhaksa,RU,52.1338,42.0264,62.28,69,71,4.0,broken clouds
583,Viedma,AR,-40.8135,-62.9967,69.66,39,100,26.75,overcast clouds
584,Kalmunai,LK,7.4167,81.8167,83.26,64,98,6.08,overcast clouds
585,Srednekolymsk,RU,67.45,153.6833,29.62,75,100,2.82,overcast clouds
586,Arman,RU,59.7,150.1667,34.2,64,2,8.63,clear sky
587,Hunterville,NZ,-39.9333,175.5667,46.96,93,29,5.68,scattered clouds
588,Botad,IN,22.1667,71.6667,81.03,82,100,8.05,heavy intensity rain
589,Talcahuano,CL,-36.7167,-73.1167,53.28,94,90,28.77,overcast clouds
590,Kerman,IR,30.2832,57.0788,77.13,13,0,8.19,clear sky
591,Sidrolandia,BR,-20.9319,-54.9614,81.39,36,53,6.06,broken clouds
592,Solnechnyy,RU,50.7214,136.6319,47.53,95,100,6.38,overcast clouds
593,Naze,JP,28.3667,129.4833,76.19,83,100,2.33,moderate rain
594,Ulaanbaatar,MN,47.9077,106.8832,46.53,87,75,15.66,light rain
595,Puerto Colombia,CO,10.9878,-74.9547,82.49,74,96,9.22,overcast clouds
596,Umm Lajj,SA,25.0213,37.2685,84.22,68,4,13.56,clear sky
597,Umarkot,PK,25.3616,69.7362,84.27,74,99,17.4,light rain
598,Rafsanjan,IR,30.4067,55.9939,81.25,12,0,16.17,clear sky
599,Trincomalee,LK,8.5711,81.2335,82.58,68,99,18.99,overcast clouds
600,Banjarmasin,ID,-3.3244,114.591,75.34,93,88,2.46,overcast clouds
601,Malpe,IN,13.35,74.7167,78.1,89,85,6.31,overcast clouds
602,Bubaque,GW,11.2833,-15.8333,80.37,79,100,12.95,overcast clouds
603,Olinda,BR,-8.0089,-34.8553,82.13,57,40,12.66,scattered clouds
604,Fort Nelson,CA,58.8053,-122.7002,47.79,93,75,0.0,broken clouds
605,Chepo,PA,9.1667,-79.1,78.58,81,100,5.01,overcast clouds
606,Calama,CL,-22.4667,-68.9333,70.29,9,20,11.5,few clouds
607,Villafranca De Los Barros,ES,38.5614,-6.3381,89.35,34,44,8.97,scattered clouds
608,Killybegs,IE,54.6333,-8.45,64.11,77,95,9.57,overcast clouds
609,Iberia,US,29.9502,-91.7507,82.98,51,1,10.36,clear sky
610,Gharghoda,IN,22.1667,83.35,76.03,92,98,3.6,overcast clouds
611,Beira,MZ,-19.8436,34.8389,71.87,65,29,9.15,scattered clouds
612,Shaowu,CN,27.3409,117.4831,75.34,93,1,2.75,light rain
613,Wanning,CN,18.8003,110.3967,79.83,89,24,1.79,few clouds
614,Prince Rupert,CA,54.3161,-130.3201,55.87,85,100,8.23,overcast clouds
615,Knysna,ZA,-34.0363,23.0471,64.27,75,94,4.21,overcast clouds
616,Kirakira,SB,-10.4544,161.9205,78.08,86,53,9.35,broken clouds
617,Mbandaka,CD,0.0487,18.2603,78.21,76,74,1.61,light rain
618,Pitimbu,BR,-7.4706,-34.8086,84.79,60,53,15.17,broken clouds
619,Carauari,BR,-4.8828,-66.8958,91.17,50,79,3.44,broken clouds
620,Gull Lake,CA,50.1001,-108.4847,52.16,78,100,12.8,overcast clouds
621,Hare Bay,CA,48.8499,-54.0148,71.51,52,30,18.23,scattered clouds
622,Sainte-Marie,RE,-20.8968,55.5496,69.96,78,90,17.27,overcast clouds
623,Tongren,CN,27.7172,109.1853,77.4,75,87,3.2,light rain
624,Mindelo,CV,16.8901,-24.9804,79.09,78,79,5.46,broken clouds
625,Winslow,US,35.0242,-110.6974,76.96,36,1,1.99,clear sky
626,Carmelo,UY,-33.9892,-58.2856,65.19,64,2,10.58,clear sky
627,Santa Vitoria Do Palmar,BR,-33.5189,-53.3681,63.14,73,37,3.29,scattered clouds
628,Griffith,US,41.5284,-87.4237,79.47,68,1,3.0,clear sky
629,Petropavlovsk-Kamchatskiy,RU,53.0452,158.6483,36.86,68,60,11.9,broken clouds
630,Ayagoz,KZ,47.9714,80.4392,56.95,32,81,8.21,broken clouds
631,Tarko-Sale,RU,64.9225,77.785,47.89,89,100,13.18,overcast clouds
632,Cayenne,GF,4.9333,-52.3333,89.64,73,40,5.01,scattered clouds
633,Maniwaki,CA,46.3834,-75.966,66.4,57,84,10.4,broken clouds
634,Touros,BR,-5.1989,-35.4608,86.9,55,9,19.57,clear sky
635,Tufesti,RO,45.05,27.8167,78.44,29,70,7.96,broken clouds
636,Puerto Leguizamo,CO,-0.1934,-74.7819,86.31,53,70,3.02,broken clouds
637,Presidente Medici,BR,-11.1753,-61.9014,97.36,35,6,3.02,clear sky
638,Mana,GF,5.6592,-53.7767,86.77,61,6,11.36,clear sky
639,Half Moon Bay,US,37.4636,-122.4286,70.45,86,20,0.0,few clouds
640,Beruwala,LK,6.4788,79.9828,80.11,83,100,9.55,moderate rain
641,Youkounkoun,GN,12.5333,-13.1333,86.77,67,98,0.92,overcast clouds
642,Saldanha,ZA,-33.0117,17.9442,60.12,87,100,9.04,overcast clouds
643,Sao Felix Do Xingu,BR,-6.6447,-51.995,102.2,21,5,4.34,clear sky
644,Dodge City,US,37.7528,-100.0171,90.64,33,1,10.0,clear sky
645,Bodden Town,KY,19.2833,-81.25,88.99,71,20,10.0,few clouds
646,Zhangjiakou,CN,40.81,114.8794,66.65,78,3,6.44,clear sky
647,Bonthe,SL,7.5264,-12.505,82.69,70,92,8.39,overcast clouds
648,Panaba,MX,21.2833,-88.2667,75.0,95,100,7.31,overcast clouds
649,Ixtapa,MX,20.7,-105.2,85.23,74,1,2.3,clear sky
650,Constitucion,CL,-35.3333,-72.4167,54.43,89,100,23.22,moderate rain
651,Konevo,RU,62.1215,39.3192,46.38,84,84,4.47,broken clouds
652,Nuuk,GL,64.1835,-51.7216,45.21,57,75,13.8,broken clouds
653,Ojinaga,MX,29.5667,-104.4167,87.57,30,1,3.44,clear sky
654,Santa Cruz,BO,-17.8,-63.1667,85.46,39,40,14.97,scattered clouds
655,San Juan,AR,-31.5375,-68.5364,79.61,12,0,14.79,clear sky
656,Mokrous,RU,51.2333,47.5167,60.35,41,0,6.67,clear sky
657,Galle,LK,6.0367,80.217,80.35,82,100,10.92,overcast clouds
658,Westport,US,41.1415,-73.3579,78.21,58,1,1.01,clear sky
659,Navolato,MX,24.7672,-107.6944,86.63,81,0,5.84,clear sky
660,Carutapera,BR,-1.195,-46.02,88.27,56,76,9.93,broken clouds
661,Kenora,CA,49.8167,-94.4337,57.18,61,53,11.01,broken clouds
662,General Higinio Morinigo,PY,-25.95,-55.9167,79.45,31,5,4.99,clear sky
663,Batemans Bay,AU,-35.7167,150.1833,64.9,48,0,7.67,clear sky
664,Severomuysk,RU,56.1481,113.4267,43.03,90,100,3.44,light rain
665,Kamakwie,SL,9.5,-12.2333,78.31,91,99,0.96,moderate rain
666,Humaita,BR,-7.5061,-63.0208,101.03,32,4,1.88,clear sky
667,Joetsu,JP,37.1483,138.2364,70.41,86,12,3.62,few clouds
668,Abashiri,JP,44.0213,144.2697,59.59,91,82,12.97,broken clouds
669,Tapes,BR,-30.6733,-51.3958,66.88,62,13,3.89,few clouds
670,Saint-Francois,FR,46.4154,3.9054,75.47,53,20,3.44,few clouds
671,Singaraja,ID,-8.112,115.0882,78.6,87,95,4.21,overcast clouds
672,Mercedes,AR,-34.6515,-59.4307,65.79,64,7,13.33,clear sky
673,Moravske Budejovice,CZ,49.0521,15.8086,75.25,52,55,2.93,broken clouds
674,Macau,MO,22.2006,113.5461,87.71,84,0,8.05,light rain
675,Lao Cai,VN,22.4833,103.95,79.07,76,0,1.59,clear sky
676,Khorramshahr,IR,30.4397,48.1664,94.95,11,0,11.83,clear sky
677,Goba,ET,7.0167,39.9833,51.22,90,64,6.22,broken clouds
678,Vardo,NO,70.3705,31.1107,43.84,70,88,10.63,overcast clouds
679,Ilhabela,BR,-23.7781,-45.3581,71.38,84,89,4.12,overcast clouds
680,Cotonou,BJ,6.3654,2.4183,80.64,76,99,5.7,overcast clouds
681,Alta,NO,69.9689,23.2717,47.46,74,0,3.0,clear sky
682,Port Macquarie,AU,-31.4333,152.9167,48.16,100,0,0.0,clear sky
683,Isla Mujeres,MX,21.2311,-86.731,82.45,85,100,11.03,overcast clouds
684,Niono,ML,14.2526,-5.993,93.24,35,95,7.16,overcast clouds
685,Gazojak,TM,41.1875,61.4036,71.08,14,0,9.22,clear sky
686,Rudbar,AF,30.15,62.6,83.43,15,0,5.01,clear sky
687,Tabou,CI,4.423,-7.3528,81.88,73,52,10.22,broken clouds
688,Takoradi,GH,4.8845,-1.7554,78.85,83,52,9.78,moderate rain
689,Kastamonu,TR,41.5,33.6667,62.62,82,65,6.96,broken clouds
690,Kilkenny,IE,52.6542,-7.2522,65.08,79,100,5.99,overcast clouds
691,Riyadh,SA,24.6877,46.7219,95.14,8,58,12.5,broken clouds
692,Oskemen,KZ,49.9565,82.6119,60.44,29,100,8.93,overcast clouds
